{"type":"FeatureCollection","query":"https:\/\/data.adamlink.nl\/AdamNet\/all\/services\/endpoint#query=%0APREFIX+rdfs%3A+%3Chttp%3A%2F%2Fwww.w3.org%2F2000%2F01%2Frdf-schema%23%3E%0APREFIX+dc%3A+%3Chttp%3A%2F%2Fpurl.org%2Fdc%2Felements%2F1.1%2F%3E%0APREFIX+geo%3A+%3Chttp%3A%2F%2Fwww.opengis.net%2Font%2Fgeosparql%23%3E%0APREFIX+dct%3A+%3Chttp%3A%2F%2Fpurl.org%2Fdc%2Fterms%2F%3E%0APREFIX+schema%3A+%3Chttp%3A%2F%2Fschema.org%2F%3E%0APREFIX+hg%3A+%3Chttp%3A%2F%2Frdf.histograph.io%2F%3E%0APREFIX+rdf%3A+%3Chttp%3A%2F%2Fwww.w3.org%2F1999%2F02%2F22-rdf-syntax-ns%23%3E%0APREFIX+skos%3A+%3Chttp%3A%2F%2Fwww.w3.org%2F2004%2F02%2Fskos%2Fcore%23%3E%0APREFIX+sem%3A+%3Chttp%3A%2F%2Fsemanticweb.cs.vu.nl%2F2009%2F11%2Fsem%2F%3E%0ASELECT+%3Fstation+%3Fwkt+%3Flabel+%3Fyear+WHERE+%7B%0A++%3Fstation+rdf%3Atype+hg%3ABuilding+.%0A++%3Fstation+dc%3Atype+%3Chttp%3A%2F%2Fvocab.getty.edu%2Faat%2F300007780%3E+.%0A++%3Fstation+geo%3AhasGeometry%2Fgeo%3AasWKT+%3Fwkt+.%0A++%3Fstation+skos%3AprefLabel+%3Flabel+.%0A++OPTIONAL+%7B+%3Fstation+sem%3AhasEarliestBeginTimeStamp+%3Fyear+.%7D%0A%7D%0A&contentTypeConstruct=text%2Fturtle&contentTypeSelect=application%2Fsparql-results%2Bjson&endpoint=https%3A%2F%2Fdata.adamlink.nl%2F_api%2Fdatasets%2Fmenno%2Falles%2Fservices%2Falles%2Fsparql&requestMethod=POST&tabTitle=Query&headers=%7B%7D&outputFormat=table","features":[{"type":"Feature","geometry":{"type":"Point","coordinates":[4.8575,52.338333]},"properties":{"station":"https:\/\/adamlink.nl\/geo\/building\/metrostation-amstelveenseweg\/1194","stationlabel":"Metrostation Amstelveenseweg","year":"1997"}},{"type":"Feature","geometry":{"type":"Point","coordinates":[4.946111111,52.313055555]},"properties":{"station":"https:\/\/adamlink.nl\/geo\/building\/metrostation-amsterdam-bijlmer-arena\/1166","stationlabel":"Metrostation Amsterdam Bijlmer ArenA","year":"1971"}},{"type":"Feature","geometry":{"type":"Point","coordinates":[4.96,52.298333]},"properties":{"station":"https:\/\/adamlink.nl\/geo\/building\/metrostation-amsterdam-holendrecht\/1167","stationlabel":"Metrostation Amsterdam Holendrecht","year":"2008"}},{"type":"Feature","geometry":{"type":"Point","coordinates":[4.952222,52.306667]},"properties":{"station":"https:\/\/adamlink.nl\/geo\/building\/metrostation-bullewijk\/1163","stationlabel":"Metrostation Bullewijk","year":"1977"}},{"type":"Feature","geometry":{"type":"Point","coordinates":[4.936389,52.323333]},"properties":{"station":"https:\/\/adamlink.nl\/geo\/building\/metrostation-duivendrecht\/1193","stationlabel":"Metrostation Duivendrecht","year":"1993"}},{"type":"Feature","geometry":{"type":"Point","coordinates":[4.984444,52.311111]},"properties":{"station":"https:\/\/adamlink.nl\/geo\/building\/metrostation-gaasperplas\/1169","stationlabel":"Metrostation Gaasperplas","year":"1997"}},{"type":"Feature","geometry":{"type":"Point","coordinates":[4.973056,52.323611]},"properties":{"station":"https:\/\/adamlink.nl\/geo\/building\/metrostation-ganzenhoef\/1198","stationlabel":"Metrostation Ganzenhoef","year":"1977"}},{"type":"Feature","geometry":{"type":"Point","coordinates":[4.988889,52.296111]},"properties":{"station":"https:\/\/adamlink.nl\/geo\/building\/metrostation-gein\/1182","stationlabel":"Metrostation Gein","year":"1982"}},{"type":"Feature","geometry":{"type":"Point","coordinates":[4.834167,52.352778]},"properties":{"station":"https:\/\/adamlink.nl\/geo\/building\/metrostation-heemstedestraat\/1173","stationlabel":"Metrostation Heemstedestraat","year":"1997"}},{"type":"Feature","geometry":{"type":"Point","coordinates":[4.834444,52.346389]},"properties":{"station":"https:\/\/adamlink.nl\/geo\/building\/metrostation-henk-sneevlietweg\/1183","stationlabel":"Metrostation Henk Sneevlietweg","year":"1997"}},{"type":"Feature","geometry":{"type":"Point","coordinates":[4.850556,52.395278]},"properties":{"station":"https:\/\/adamlink.nl\/geo\/building\/metrostation-isolatorweg\/1171","stationlabel":"Metrostation Isolatorweg","year":"1997"}},{"type":"Feature","geometry":{"type":"Point","coordinates":[4.835278,52.3725]},"properties":{"station":"https:\/\/adamlink.nl\/geo\/building\/metrostation-jan-van-galenstraat\/1180","stationlabel":"Metrostation Jan van Galenstraat","year":"1997"}},{"type":"Feature","geometry":{"type":"Point","coordinates":[4.979444,52.316389]},"properties":{"station":"https:\/\/adamlink.nl\/geo\/building\/metrostation-kraaiennest\/1165","stationlabel":"Metrostation Kraaiennest","year":"1977"}},{"type":"Feature","geometry":{"type":"Point","coordinates":[4.901111,52.371944]},"properties":{"station":"https:\/\/adamlink.nl\/geo\/building\/metrostation-nieuwmarkt\/1178","stationlabel":"Metrostation Nieuwmarkt","year":"1980"}},{"type":"Feature","geometry":{"type":"Point","coordinates":[4.932222,52.401667]},"properties":{"station":"https:\/\/adamlink.nl\/geo\/building\/metrostation-noord\/1156","stationlabel":"Metrostation Noord","year":"2017"}},{"type":"Feature","geometry":{"type":"Point","coordinates":[4.9175,52.331667]},"properties":{"station":"https:\/\/adamlink.nl\/geo\/building\/metrostation-overamstel\/1189","stationlabel":"Metrostation Overamstel","year":"1990"}},{"type":"Feature","geometry":{"type":"Point","coordinates":[4.974167,52.295556]},"properties":{"station":"https:\/\/adamlink.nl\/geo\/building\/metrostation-reigersbos\/1207","stationlabel":"Metrostation Reigersbos","year":"1982"}},{"type":"Feature","geometry":{"type":"Point","coordinates":[4.920833,52.34]},"properties":{"station":"https:\/\/adamlink.nl\/geo\/building\/metrostation-spaklerweg\/1177","stationlabel":"Metrostation Spaklerweg","year":"1982"}},{"type":"Feature","geometry":{"type":"Point","coordinates":[4.833888888,52.357222222]},"properties":{"station":"https:\/\/adamlink.nl\/geo\/building\/metrostation-station-amsterdam-lelylaan\/1159","stationlabel":"Metrostation station Amsterdam Lelylaan","year":"1986"}},{"type":"Feature","geometry":{"type":"Point","coordinates":[4.941389,52.318611]},"properties":{"station":"https:\/\/adamlink.nl\/geo\/building\/metrostation-strandvliet\/1195","stationlabel":"Metrostation Strandvliet","year":"1977"}},{"type":"Feature","geometry":{"type":"Point","coordinates":[4.93,52.33]},"properties":{"station":"https:\/\/adamlink.nl\/geo\/building\/metrostation-van-der-madeweg\/1206","stationlabel":"Metrostation Van der Madeweg","year":"1977"}},{"type":"Feature","geometry":{"type":"Point","coordinates":[4.946389,52.326667]},"properties":{"station":"https:\/\/adamlink.nl\/geo\/building\/metrostation-venserpolder\/1157","stationlabel":"Metrostation Venserpolder","year":"1977"}},{"type":"Feature","geometry":{"type":"Point","coordinates":[4.967222,52.328333]},"properties":{"station":"https:\/\/adamlink.nl\/geo\/building\/metrostation-verrijn-stuartweg\/1190","stationlabel":"Metrostation Verrijn Stuartweg","year":"1977"}},{"type":"Feature","geometry":{"type":"Point","coordinates":[4.903261,52.366958]},"properties":{"station":"https:\/\/adamlink.nl\/geo\/building\/metrostation-waterlooplein\/1185","stationlabel":"Metrostation Waterlooplein","year":"1980"}},{"type":"Feature","geometry":{"type":"Point","coordinates":[4.907778,52.361111]},"properties":{"station":"https:\/\/adamlink.nl\/geo\/building\/metrostation-weesperplein\/1162","stationlabel":"Metrostation Weesperplein","year":"1977"}},{"type":"Feature","geometry":{"type":"Point","coordinates":[4.830556,52.274444]},"properties":{"station":"https:\/\/adamlink.nl\/geo\/building\/metrostation-westwijk\/1205","stationlabel":"Metrostation Westwijk","year":"2004"}},{"type":"Feature","geometry":{"type":"Point","coordinates":[4.912778,52.3525]},"properties":{"station":"https:\/\/adamlink.nl\/geo\/building\/metrostation-wibautstraat\/1158","stationlabel":"Metrostation Wibautstraat","year":"1977"}},{"type":"Feature","geometry":{"type":"Point","coordinates":[4.868611,52.331389]},"properties":{"station":"https:\/\/adamlink.nl\/geo\/building\/metrostation-aj-ernststraat\/1164","stationlabel":"Metrostation A.J. Ernststraat","year":"????"}},{"type":"Feature","geometry":{"type":"Point","coordinates":[4.869722,52.299722]},"properties":{"station":"https:\/\/adamlink.nl\/geo\/building\/metrostation-amstelveen-centrum\/1201","stationlabel":"Metrostation Amstelveen Centrum","year":"????"}},{"type":"Feature","geometry":{"type":"Point","coordinates":[4.917778,52.346389]},"properties":{"station":"https:\/\/adamlink.nl\/geo\/building\/metrostation-amsterdam-amstel\/1168","stationlabel":"Metrostation Amsterdam Amstel","year":"????"}},{"type":"Feature","geometry":{"type":"Point","coordinates":[4.900555555,52.378888888]},"properties":{"station":"https:\/\/adamlink.nl\/geo\/building\/metrostation-amsterdam-centraal\/1161","stationlabel":"Metrostation Amsterdam Centraal","year":"????"}},{"type":"Feature","geometry":{"type":"Point","coordinates":[4.851805555,52.280555555]},"properties":{"station":"https:\/\/adamlink.nl\/geo\/building\/metrostation-brink\/1192","stationlabel":"Metrostation Brink","year":"????"}},{"type":"Feature","geometry":{"type":"Point","coordinates":[4.868611,52.334444]},"properties":{"station":"https:\/\/adamlink.nl\/geo\/building\/metrostation-de-boelelaanvu\/1179","stationlabel":"Metrostation De Boelelaan\/VU","year":"????"}},{"type":"Feature","geometry":{"type":"Point","coordinates":[4.890556,52.353611]},"properties":{"station":"https:\/\/adamlink.nl\/geo\/building\/metrostation-de-pijp\/1174","stationlabel":"Metrostation De Pijp","year":"????"}},{"type":"Feature","geometry":{"type":"Point","coordinates":[4.838056,52.379444]},"properties":{"station":"https:\/\/adamlink.nl\/geo\/building\/metrostation-de-vlugtlaan\/1181","stationlabel":"Metrostation De Vlugtlaan","year":"????"}},{"type":"Feature","geometry":{"type":"Point","coordinates":[4.8925,52.341667]},"properties":{"station":"https:\/\/adamlink.nl\/geo\/building\/metrostation-europaplein\/1176","stationlabel":"Metrostation Europaplein","year":"????"}},{"type":"Feature","geometry":{"type":"Point","coordinates":[4.859167,52.284167]},"properties":{"station":"https:\/\/adamlink.nl\/geo\/building\/metrostation-gondel\/1200","stationlabel":"Metrostation Gondel","year":"????"}},{"type":"Feature","geometry":{"type":"Point","coordinates":[4.870278,52.316389]},"properties":{"station":"https:\/\/adamlink.nl\/geo\/building\/metrostation-kronenburg\/1187","stationlabel":"Metrostation Kronenburg","year":"????"}},{"type":"Feature","geometry":{"type":"Point","coordinates":[4.861389,52.286944]},"properties":{"station":"https:\/\/adamlink.nl\/geo\/building\/metrostation-marne\/1197","stationlabel":"Metrostation Marne","year":"????"}},{"type":"Feature","geometry":{"type":"Point","coordinates":[4.919167,52.389167]},"properties":{"station":"https:\/\/adamlink.nl\/geo\/building\/metrostation-noorderpark\/1172","stationlabel":"Metrostation Noorderpark","year":"????"}},{"type":"Feature","geometry":{"type":"Point","coordinates":[4.871667,52.303056]},"properties":{"station":"https:\/\/adamlink.nl\/geo\/building\/metrostation-oranjebaan\/1202","stationlabel":"Metrostation Oranjebaan","year":"????"}},{"type":"Feature","geometry":{"type":"Point","coordinates":[4.867555555,52.296222222]},"properties":{"station":"https:\/\/adamlink.nl\/geo\/building\/metrostation-ouderkerkerlaan\/1188","stationlabel":"Metrostation Ouderkerkerlaan","year":"????"}},{"type":"Feature","geometry":{"type":"Point","coordinates":[4.845444444,52.28325]},"properties":{"station":"https:\/\/adamlink.nl\/geo\/building\/metrostation-poortwachter\/1191","stationlabel":"Metrostation Poortwachter","year":"????"}},{"type":"Feature","geometry":{"type":"Point","coordinates":[4.833889,52.364722]},"properties":{"station":"https:\/\/adamlink.nl\/geo\/building\/metrostation-postjesweg\/1175","stationlabel":"Metrostation Postjesweg","year":"????"}},{"type":"Feature","geometry":{"type":"Point","coordinates":[4.892778,52.371111]},"properties":{"station":"https:\/\/adamlink.nl\/geo\/building\/metrostation-rokin\/1160","stationlabel":"Metrostation Rokin","year":"????"}},{"type":"Feature","geometry":{"type":"Point","coordinates":[4.8325,52.282222]},"properties":{"station":"https:\/\/adamlink.nl\/geo\/building\/metrostation-sacharovlaan\/1204","stationlabel":"Metrostation Sacharovlaan","year":"????"}},{"type":"Feature","geometry":{"type":"Point","coordinates":[4.838194444,52.284222222]},"properties":{"station":"https:\/\/adamlink.nl\/geo\/building\/metrostation-spinnerij\/1196","stationlabel":"Metrostation Spinnerij","year":"????"}},{"type":"Feature","geometry":{"type":"Point","coordinates":[4.863889,52.290556]},"properties":{"station":"https:\/\/adamlink.nl\/geo\/building\/metrostation-sportlaan\/1186","stationlabel":"Metrostation Sportlaan","year":"????"}},{"type":"Feature","geometry":{"type":"Point","coordinates":[4.868889,52.321667]},"properties":{"station":"https:\/\/adamlink.nl\/geo\/building\/metrostation-uilenstede\/1199","stationlabel":"Metrostation Uilenstede","year":"????"}},{"type":"Feature","geometry":{"type":"Point","coordinates":[4.868889,52.325]},"properties":{"station":"https:\/\/adamlink.nl\/geo\/building\/metrostation-van-boshuizenstraat\/1170","stationlabel":"Metrostation Van Boshuizenstraat","year":"????"}},{"type":"Feature","geometry":{"type":"Point","coordinates":[4.891111,52.360833]},"properties":{"station":"https:\/\/adamlink.nl\/geo\/building\/metrostation-vijzelgracht\/1184","stationlabel":"Metrostation Vijzelgracht","year":"????"}},{"type":"Feature","geometry":{"type":"Point","coordinates":[4.871944,52.312222]},"properties":{"station":"https:\/\/adamlink.nl\/geo\/building\/metrostation-zonnestein\/1203","stationlabel":"Metrostation Zonnestein","year":"????"}}]}